pop_name,pop_num,latitude,longitude,elevation_m,range,MAT,MAP,AHM,PAS,SHM,FFP,DD5
CJC,201,35.74535,-118.55546,1807.464,Sequoia,10.7,814,25.4,44,356.6,169,2392
SRN,206,37.03416,-119.22023,1231.6968,Sierra,13.3,895,26,14,376.1,214,3128
TAB,195,44.2337,-122.108,1439.5704,Willamette,7.9,2296,7.8,219,41.5,146,1583
NAD,gu1,35.69522,-117.97068,1689,Sequoia,14.4,262,93.2,5,1194.8,233,3544
YVO,gu2,37.72337,-119.74643,1495,Sierra,12,997,22.1,24,304.2,191,2724
HAC,gu3,44.39445,-122.1178,1285,Willamette,7.5,2468,7.1,308,37.3,142,1516